line_name,line_color,station_order,station_name,lat,lng,dir_1_label,dir_m1_label,max_cars
銀座線,#F39700,1,浅草,35.7106,139.7967,渋谷 方面,浅草 方面,6
銀座線,#F39700,2,田原町,35.7099,139.7915,渋谷 方面,浅草 方面,6
銀座線,#F39700,3,稲荷町,35.7112,139.7824,渋谷 方面,浅草 方面,6
銀座線,#F39700,4,上野,35.7137,139.7770,渋谷 方面,浅草 方面,6
銀座線,#F39700,5,上野広小路,35.7077,139.7733,渋谷 方面,浅草 方面,6
銀座線,#F39700,6,末広町,35.7032,139.7715,渋谷 方面,浅草 方面,6
銀座線,#F39700,7,神田,35.6918,139.7709,渋谷 方面,浅草 方面,6
銀座線,#F39700,8,三越前,35.6853,139.7731,渋谷 方面,浅草 方面,6
銀座線,#F39700,9,日本橋,35.6823,139.7735,渋谷 方面,浅草 方面,6
銀座線,#F39700,10,京橋,35.6767,139.7702,渋谷 方面,浅草 方面,6
銀座線,#F39700,11,銀座,35.6719,139.7640,渋谷 方面,浅草 方面,6
銀座線,#F39700,12,新橋,35.6663,139.7583,渋谷 方面,浅草 方面,6
銀座線,#F39700,13,虎ノ門,35.6695,139.7501,渋谷 方面,浅草 方面,6
銀座線,#F39700,14,溜池山王,35.6713,139.7423,渋谷 方面,浅草 方面,6
銀座線,#F39700,15,赤坂見附,35.6766,139.7363,渋谷 方面,浅草 方面,6
銀座線,#F39700,16,青山一丁目,35.6729,139.7238,渋谷 方面,浅草 方面,6
銀座線,#F39700,17,外苑前,35.6705,139.7178,渋谷 方面,浅草 方面,6
銀座線,#F39700,18,表参道,35.6653,139.7125,渋谷 方面,浅草 方面,6
銀座線,#F39700,19,渋谷,35.6580,139.7016,渋谷 方面,浅草 方面,6
丸ノ内線,#E60012,1,池袋,35.7295,139.7109,荻窪 方面,池袋 方面,6
丸ノ内線,#E60012,2,新大塚,35.7257,139.7298,荻窪 方面,池袋 方面,6
丸ノ内線,#E60012,3,茗荷谷,35.7176,139.7371,荻窪 方面,池袋 方面,6
丸ノ内線,#E60012,4,後楽園,35.7073,139.7517,荻窪 方面,池袋 方面,6
丸ノ内線,#E60012,5,本郷三丁目,35.7067,139.7599,荻窪 方面,池袋 方面,6
丸ノ内線,#E60012,6,御茶ノ水,35.7000,139.7638,荻窪 方面,池袋 方面,6
丸ノ内線,#E60012,7,淡路町,35.6957,139.7675,荻窪 方面,池袋 方面,6
丸ノ内線,#E60012,8,大手町,35.6848,139.7661,荻窪 方面,池袋 方面,6
丸ノ内線,#E60012,9,東京,35.6812,139.7671,荻窪 方面,池袋 方面,6
丸ノ内線,#E60012,10,銀座,35.6719,139.7640,荻窪 方面,池袋 方面,6
丸ノ内線,#E60012,11,霞ケ関,35.6738,139.7510,荻窪 方面,池袋 方面,6
丸ノ内線,#E60012,12,国会議事堂前,35.6737,139.7454,荻窪 方面,池袋 方面,6
丸ノ内線,#E60012,13,赤坂見附,35.6766,139.7363,荻窪 方面,池袋 方面,6
丸ノ内線,#E60012,14,四ツ谷,35.6861,139.7307,荻窪 方面,池袋 方面,6
丸ノ内線,#E60012,15,四谷三丁目,35.6879,139.7202,荻窪 方面,池袋 方面,6
丸ノ内線,#E60012,16,新宿御苑前,35.6885,139.7107,荻窪 方面,池袋 方面,6
丸ノ内線,#E60012,17,新宿三丁目,35.6909,139.7047,荻窪 方面,池袋 方面,6
丸ノ内線,#E60012,18,新宿,35.6901,139.7004,荻窪 方面,池袋 方面,6
丸ノ内線,#E60012,19,西新宿,35.6946,139.6928,荻窪 方面,池袋 方面,6
丸ノ内線,#E60012,20,中野坂上,35.6976,139.6828,荻窪 方面,池袋 方面,6
丸ノ内線,#E60012,21,新中野,35.6980,139.6687,荻窪 方面,池袋 方面,6
丸ノ内線,#E60012,22,東高円寺,35.6983,139.6575,荻窪 方面,池袋 方面,6
丸ノ内線,#E60012,23,新高円寺,35.6975,139.6468,荻窪 方面,池袋 方面,6
丸ノ内線,#E60012,24,南阿佐ケ谷,35.6997,139.6356,荻窪 方面,池袋 方面,6
丸ノ内線,#E60012,25,荻窪,35.7045,139.6202,荻窪 方面,池袋 方面,6
日比谷線,#B5B5AC,1,北千住,35.7494,139.8051,中目黒 方面,北千住 方面,7
日比谷線,#B5B5AC,2,南千住,35.7337,139.7994,中目黒 方面,北千住 方面,7
日比谷線,#B5B5AC,3,三ノ輪,35.7297,139.7912,中目黒 方面,北千住 方面,7
日比谷線,#B5B5AC,4,入谷,35.7212,139.7838,中目黒 方面,北千住 方面,7
日比谷線,#B5B5AC,5,上野,35.7137,139.7770,中目黒 方面,北千住 方面,7
日比谷線,#B5B5AC,6,仲御徒町,35.7067,139.7747,中目黒 方面,北千住 方面,7
日比谷線,#B5B5AC,7,秋葉原,35.6983,139.7732,中目黒 方面,北千住 方面,7
日比谷線,#B5B5AC,8,小伝馬町,35.6908,139.7773,中目黒 方面,北千住 方面,7
日比谷線,#B5B5AC,9,人形町,35.6864,139.7821,中目黒 方面,北千住 方面,7
日比谷線,#B5B5AC,10,茅場町,35.6797,139.7797,中目黒 方面,北千住 方面,7
日比谷線,#B5B5AC,11,八丁堀,35.6747,139.7773,中目黒 方面,北千住 方面,7
日比谷線,#B5B5AC,12,築地,35.6682,139.7722,中目黒 方面,北千住 方面,7
日比谷線,#B5B5AC,13,東銀座,35.6693,139.7672,中目黒 方面,北千住 方面,7
日比谷線,#B5B5AC,14,銀座,35.6719,139.7640,中目黒 方面,北千住 方面,7
日比谷線,#B5B5AC,15,日比谷,35.6738,139.7592,中目黒 方面,北千住 方面,7
日比谷線,#B5B5AC,16,霞ケ関,35.6738,139.7510,中目黒 方面,北千住 方面,7
日比谷線,#B5B5AC,17,虎ノ門ヒルズ,35.6677,139.7485,中目黒 方面,北千住 方面,7
日比谷線,#B5B5AC,18,神谷町,35.6629,139.7451,中目黒 方面,北千住 方面,7
日比谷線,#B5B5AC,19,六本木,35.6628,139.7314,中目黒 方面,北千住 方面,7
日比谷線,#B5B5AC,20,広尾,35.6523,139.7224,中目黒 方面,北千住 方面,7
日比谷線,#B5B5AC,21,恵比寿,35.6467,139.7101,中目黒 方面,北千住 方面,7
日比谷線,#B5B5AC,22,中目黒,35.6443,139.6991,中目黒 方面,北千住 方面,7
東西線,#009BBF,1,中野,35.7057,139.6657,西船橋 方面,中野 方面,10
東西線,#009BBF,2,落合,35.7115,139.6872,西船橋 方面,中野 方面,10
東西線,#009BBF,3,高田馬場,35.7129,139.7038,西船橋 方面,中野 方面,10
東西線,#009BBF,4,早稲田,35.7056,139.7212,西船橋 方面,中野 方面,10
東西線,#009BBF,5,神楽坂,35.7037,139.7351,西船橋 方面,中野 方面,10
東西線,#009BBF,6,飯田橋,35.7020,139.7450,西船橋 方面,中野 方面,10
東西線,#009BBF,7,九段下,35.6956,139.7519,西船橋 方面,中野 方面,10
東西線,#009BBF,8,竹橋,35.6904,139.7552,西船橋 方面,中野 方面,10
東西線,#009BBF,9,大手町,35.6848,139.7661,西船橋 方面,中野 方面,10
東西線,#009BBF,10,日本橋,35.6823,139.7735,西船橋 方面,中野 方面,10
東西線,#009BBF,11,茅場町,35.6797,139.7797,西船橋 方面,中野 方面,10
東西線,#009BBF,12,門前仲町,35.6719,139.7963,西船橋 方面,中野 方面,10
東西線,#009BBF,13,木場,35.6693,139.8071,西船橋 方面,中野 方面,10
東西線,#009BBF,14,東陽町,35.6693,139.8172,西船橋 方面,中野 方面,10
東西線,#009BBF,15,南砂町,35.6669,139.8335,西船橋 方面,中野 方面,10
東西線,#009BBF,16,西葛西,35.6657,139.8596,西船橋 方面,中野 方面,10
東西線,#009BBF,17,葛西,35.6634,139.8732,西船橋 方面,中野 方面,10
東西線,#009BBF,18,浦安,35.6655,139.8924,西船橋 方面,中野 方面,10
東西線,#009BBF,19,南行徳,35.6726,139.9026,西船橋 方面,中野 方面,10
東西線,#009BBF,20,行徳,35.6827,139.9142,西船橋 方面,中野 方面,10
東西線,#009BBF,21,妙典,35.6917,139.9254,西船橋 方面,中野 方面,10
東西線,#009BBF,22,原木中山,35.7032,139.9433,西船橋 方面,中野 方面,10
東西線,#009BBF,23,西船橋,35.7075,139.9592,西船橋 方面,中野 方面,10
千代田線,#00BB85,1,代々木上原,35.6691,139.6796,北綾瀬 方面,代々木上原 方面,10
千代田線,#00BB85,2,代々木公園,35.6694,139.6937,北綾瀬 方面,代々木上原 方面,10
千代田線,#00BB85,3,明治神宮前,35.6691,139.7040,北綾瀬 方面,代々木上原 方面,10
千代田線,#00BB85,4,表参道,35.6653,139.7125,北綾瀬 方面,代々木上原 方面,10
千代田線,#00BB85,5,乃木坂,35.6669,139.7262,北綾瀬 方面,代々木上原 方面,10
千代田線,#00BB85,6,赤坂,35.6722,139.7357,北綾瀬 方面,代々木上原 方面,10
千代田線,#00BB85,7,国会議事堂前,35.6737,139.7454,北綾瀬 方面,代々木上原 方面,10
千代田線,#00BB85,8,霞ケ関,35.6738,139.7510,北綾瀬 方面,代々木上原 方面,10
千代田線,#00BB85,9,日比谷,35.6738,139.7592,北綾瀬 方面,代々木上原 方面,10
千代田線,#00BB85,10,二重橋前,35.6804,139.7612,北綾瀬 方面,代々木上原 方面,10
千代田線,#00BB85,11,大手町,35.6848,139.7661,北綾瀬 方面,代々木上原 方面,10
千代田線,#00BB85,12,新御茶ノ水,35.6974,139.7656,北綾瀬 方面,代々木上原 方面,10
千代田線,#00BB85,13,湯島,35.7067,139.7709,北綾瀬 方面,代々木上原 方面,10
千代田線,#00BB85,14,根津,35.7161,139.7638,北綾瀬 方面,代々木上原 方面,10
千代田線,#00BB85,15,千駄木,35.7263,139.7629,北綾瀬 方面,代々木上原 方面,10
千代田線,#00BB85,16,西日暮里,35.7321,139.7668,北綾瀬 方面,代々木上原 方面,10
千代田線,#00BB85,17,町屋,35.7423,139.7809,北綾瀬 方面,代々木上原 方面,10
千代田線,#00BB85,18,北千住,35.7494,139.8051,北綾瀬 方面,代々木上原 方面,10
千代田線,#00BB85,19,綾瀬,35.7621,139.8242,北綾瀬 方面,代々木上原 方面,10
千代田線,#00BB85,20,北綾瀬,35.7765,139.8315,北綾瀬 方面,代々木上原 方面,10
有楽町線,#C1A470,1,和光市,35.7881,139.6123,新木場 方面,和光市 方面,10
有楽町線,#C1A470,2,地下鉄成増,35.7770,139.6322,新木場 方面,和光市 方面,10
有楽町線,#C1A470,3,地下鉄赤塚,35.7699,139.6447,新木場 方面,和光市 方面,10
有楽町線,#C1A470,4,平和台,35.7581,139.6572,新木場 方面,和光市 方面,10
有楽町線,#C1A470,5,氷川台,35.7508,139.6657,新木場 方面,和光市 方面,10
有楽町線,#C1A470,6,小竹向原,35.7436,139.6795,新木場 方面,和光市 方面,10
有楽町線,#C1A470,7,千川,35.7383,139.6893,新木場 方面,和光市 方面,10
有楽町線,#C1A470,8,要町,35.7332,139.6993,新木場 方面,和光市 方面,10
有楽町線,#C1A470,9,池袋,35.7295,139.7109,新木場 方面,和光市 方面,10
有楽町線,#C1A470,10,東池袋,35.7259,139.7196,新木場 方面,和光市 方面,10
有楽町線,#C1A470,11,護国寺,35.7197,139.7289,新木場 方面,和光市 方面,10
有楽町線,#C1A470,12,江戸川橋,35.7099,139.7341,新木場 方面,和光市 方面,10
有楽町線,#C1A470,13,飯田橋,35.7020,139.7450,新木場 方面,和光市 方面,10
有楽町線,#C1A470,14,市ケ谷,35.6917,139.7358,新木場 方面,和光市 方面,10
有楽町線,#C1A470,15,麹町,35.6840,139.7397,新木場 方面,和光市 方面,10
有楽町線,#C1A470,16,永田町,35.6775,139.7417,新木場 方面,和光市 方面,10
有楽町線,#C1A470,17,桜田門,35.6770,139.7516,新木場 方面,和光市 方面,10
有楽町線,#C1A470,18,有楽町,35.6750,139.7633,新木場 方面,和光市 方面,10
有楽町線,#C1A470,19,銀座一丁目,35.6743,139.7671,新木場 方面,和光市 方面,10
有楽町線,#C1A470,20,新富町,35.6720,139.7744,新木場 方面,和光市 方面,10
有楽町線,#C1A470,21,月島,35.6634,139.7839,新木場 方面,和光市 方面,10
有楽町線,#C1A470,22,豊洲,35.6551,139.7960,新木場 方面,和光市 方面,10
有楽町線,#C1A470,23,辰巳,35.6457,139.8113,新木場 方面,和光市 方面,10
有楽町線,#C1A470,24,新木場,35.6460,139.8262,新木場 方面,和光市 方面,10
半蔵門線,#8F76D6,1,渋谷,35.6580,139.7016,押上 方面,渋谷 方面,10
半蔵門線,#8F76D6,2,表参道,35.6653,139.7125,押上 方面,渋谷 方面,10
半蔵門線,#8F76D6,3,青山一丁目,35.6729,139.7238,押上 方面,渋谷 方面,10
半蔵門線,#8F76D6,4,永田町,35.6775,139.7417,押上 方面,渋谷 方面,10
半蔵門線,#8F76D6,5,半蔵門,35.6853,139.7412,押上 方面,渋谷 方面,10
半蔵門線,#8F76D6,6,九段下,35.6956,139.7519,押上 方面,渋谷 方面,10
半蔵門線,#8F76D6,7,神保町,35.6959,139.7577,押上 方面,渋谷 方面,10
半蔵門線,#8F76D6,8,大手町,35.6848,139.7661,押上 方面,渋谷 方面,10
半蔵門線,#8F76D6,9,三越前,35.6853,139.7731,押上 方面,渋谷 方面,10
半蔵門線,#8F76D6,10,水天宮前,35.6833,139.7854,押上 方面,渋谷 方面,10
半蔵門線,#8F76D6,11,清澄白河,35.6817,139.7997,押上 方面,渋谷 方面,10
半蔵門線,#8F76D6,12,住吉,35.6891,139.8162,押上 方面,渋谷 方面,10
半蔵門線,#8F76D6,13,錦糸町,35.6967,139.8142,押上 方面,渋谷 方面,10
半蔵門線,#8F76D6,14,押上,35.7107,139.8128,押上 方面,渋谷 方面,10
南北線,#00AC9B,1,目黒,35.6339,139.7158,赤羽岩淵 方面,目黒 方面,6
南北線,#00AC9B,2,白金台,35.6375,139.7262,赤羽岩淵 方面,目黒 方面,6
南北線,#00AC9B,3,白金高輪,35.6427,139.7342,赤羽岩淵 方面,目黒 方面,6
南北線,#00AC9B,4,麻布十番,35.6547,139.7371,赤羽岩淵 方面,目黒 方面,6
南北線,#00AC9B,5,六本木一丁目,35.6657,139.7393,赤羽岩淵 方面,目黒 方面,6
南北線,#00AC9B,6,溜池山王,35.6713,139.7423,赤羽岩淵 方面,目黒 方面,6
南北線,#00AC9B,7,永田町,35.6775,139.7417,赤羽岩淵 方面,目黒 方面,6
南北線,#00AC9B,8,四ツ谷,35.6861,139.7307,赤羽岩淵 方面,目黒 方面,6
南北線,#00AC9B,9,市ケ谷,35.6917,139.7358,赤羽岩淵 方面,目黒 方面,6
南北線,#00AC9B,10,飯田橋,35.7020,139.7450,赤羽岩淵 方面,目黒 方面,6
南北線,#00AC9B,11,後楽園,35.7073,139.7517,赤羽岩淵 方面,目黒 方面,6
南北線,#00AC9B,12,東大前,35.7175,139.7583,赤羽岩淵 方面,目黒 方面,6
南北線,#00AC9B,13,本駒込,35.7242,139.7538,赤羽岩淵 方面,目黒 方面,6
南北線,#00AC9B,14,駒込,35.7365,139.7469,赤羽岩淵 方面,目黒 方面,6
南北線,#00AC9B,15,西ケ原,35.7457,139.7431,赤羽岩淵 方面,目黒 方面,6
南北線,#00AC9B,16,王子,35.7532,139.7369,赤羽岩淵 方面,目黒 方面,6
南北線,#00AC9B,17,王子神谷,35.7645,139.7353,赤羽岩淵 方面,目黒 方面,6
南北線,#00AC9B,18,志茂,35.7778,139.7317,赤羽岩淵 方面,目黒 方面,6
南北線,#00AC9B,19,赤羽岩淵,35.7834,139.7218,赤羽岩淵 方面,目黒 方面,6
副都心線,#9C5E31,1,和光市,35.7881,139.6123,渋谷 方面,和光市 方面,10
副都心線,#9C5E31,2,地下鉄成増,35.7770,139.6322,渋谷 方面,和光市 方面,10
副都心線,#9C5E31,3,地下鉄赤塚,35.7699,139.6447,渋谷 方面,和光市 方面,10
副都心線,#9C5E31,4,平和台,35.7581,139.6572,渋谷 方面,和光市 方面,10
副都心線,#9C5E31,5,氷川台,35.7508,139.6657,渋谷 方面,和光市 方面,10
副都心線,#9C5E31,6,小竹向原,35.7436,139.6795,渋谷 方面,和光市 方面,10
副都心線,#9C5E31,7,千川,35.7383,139.6893,渋谷 方面,和光市 方面,10
副都心線,#9C5E31,8,要町,35.7332,139.6993,渋谷 方面,和光市 方面,10
副都心線,#9C5E31,9,池袋,35.7295,139.7109,渋谷 方面,和光市 方面,10
副都心線,#9C5E31,10,雑司が谷,35.7205,139.7145,渋谷 方面,和光市 方面,10
副都心線,#9C5E31,11,西早稲田,35.7077,139.7081,渋谷 方面,和光市 方面,10
副都心線,#9C5E31,12,東新宿,35.6976,139.7081,渋谷 方面,和光市 方面,10
副都心線,#9C5E31,13,新宿三丁目,35.6909,139.7047,渋谷 方面,和光市 方面,10
副都心線,#9C5E31,14,北参道,35.6792,139.7056,渋谷 方面,和光市 方面,10
副都心線,#9C5E31,15,明治神宮前,35.6691,139.7040,渋谷 方面,和光市 方面,10
副都心線,#9C5E31,16,渋谷,35.6580,139.7016,渋谷 方面,和光市 方面,10
都営浅草線,#E85298,1,西馬込,35.5868,139.7058,押上 方面,西馬込 方面,8
都営浅草線,#E85298,2,馬込,35.5962,139.7118,押上 方面,西馬込 方面,8
都営浅草線,#E85298,3,中延,35.6057,139.7136,押上 方面,西馬込 方面,8
都営浅草線,#E85298,4,戸越,35.6146,139.7153,押上 方面,西馬込 方面,8
都営浅草線,#E85298,5,五反田,35.6264,139.7234,押上 方面,西馬込 方面,8
都営浅草線,#E85298,6,高輪台,35.6322,139.7297,押上 方面,西馬込 方面,8
都営浅草線,#E85298,7,泉岳寺,35.6378,139.7397,押上 方面,西馬込 方面,8
都営浅草線,#E85298,8,三田,35.6482,139.7486,押上 方面,西馬込 方面,8
都営浅草線,#E85298,9,大門,35.6567,139.7547,押上 方面,西馬込 方面,8
都営浅草線,#E85298,10,新橋,35.6663,139.7583,押上 方面,西馬込 方面,8
都営浅草線,#E85298,11,東銀座,35.6693,139.7672,押上 方面,西馬込 方面,8
都営浅草線,#E85298,12,宝町,35.6757,139.7722,押上 方面,西馬込 方面,8
都営浅草線,#E85298,13,日本橋,35.6823,139.7735,押上 方面,西馬込 方面,8
都営浅草線,#E85298,14,人形町,35.6864,139.7821,押上 方面,西馬込 方面,8
都営浅草線,#E85298,15,東日本橋,35.6922,139.7836,押上 方面,西馬込 方面,8
都営浅草線,#E85298,16,浅草橋,35.6974,139.7863,押上 方面,西馬込 方面,8
都営浅草線,#E85298,17,蔵前,35.7035,139.7909,押上 方面,西馬込 方面,8
都営浅草線,#E85298,18,浅草,35.7106,139.7967,押上 方面,西馬込 方面,8
都営浅草線,#E85298,19,本所吾妻橋,35.7088,139.8047,押上 方面,西馬込 方面,8
都営浅草線,#E85298,20,押上,35.7107,139.8128,押上 方面,西馬込 方面,8
都営三田線,#0079C2,1,目黒,35.6339,139.7158,西高島平 方面,目黒 方面,8
都営三田線,#0079C2,2,白金台,35.6375,139.7262,西高島平 方面,目黒 方面,8
都営三田線,#0079C2,3,白金高輪,35.6427,139.7342,西高島平 方面,目黒 方面,8
都営三田線,#0079C2,4,三田,35.6482,139.7486,西高島平 方面,目黒 方面,8
都営三田線,#0079C2,5,芝公園,35.6543,139.7516,西高島平 方面,目黒 方面,8
都営三田線,#0079C2,6,御成門,35.6613,139.7516,西高島平 方面,目黒 方面,8
都営三田線,#0079C2,7,内幸町,35.6696,139.7558,西高島平 方面,目黒 方面,8
都営三田線,#0079C2,8,日比谷,35.6738,139.7592,西高島平 方面,目黒 方面,8
都営三田線,#0079C2,9,大手町,35.6848,139.7661,西高島平 方面,目黒 方面,8
都営三田線,#0079C2,10,神保町,35.6959,139.7577,西高島平 方面,目黒 方面,8
都営三田線,#0079C2,11,水道橋,35.7020,139.7533,西高島平 方面,目黒 方面,8
都営三田線,#0079C2,12,春日,35.7088,139.7523,西高島平 方面,目黒 方面,8
都営三田線,#0079C2,13,白山,35.7215,139.7519,西高島平 方面,目黒 方面,8
都営三田線,#0079C2,14,千石,35.7289,139.7449,西高島平 方面,目黒 方面,8
都営三田線,#0079C2,15,巣鴨,35.7334,139.7393,西高島平 方面,目黒 方面,8
都営三田線,#0079C2,16,西巣鴨,35.7436,139.7289,西高島平 方面,目黒 方面,8
都営三田線,#0079C2,17,新板橋,35.7497,139.7212,西高島平 方面,目黒 方面,8
都営三田線,#0079C2,18,板橋区役所前,35.7513,139.7093,西高島平 方面,目黒 方面,8
都営三田線,#0079C2,19,板橋本町,35.7611,139.7049,西高島平 方面,目黒 方面,8
都営三田線,#0079C2,20,本蓮沼,35.7691,139.7011,西高島平 方面,目黒 方面,8
都営三田線,#0079C2,21,志村坂上,35.7765,139.6974,西高島平 方面,目黒 方面,8
都営三田線,#0079C2,22,志村三丁目,35.7849,139.6865,西高島平 方面,目黒 方面,8
都営三田線,#0079C2,23,蓮根,35.7905,139.6811,西高島平 方面,目黒 方面,8
都営三田線,#0079C2,24,西台,35.7872,139.6738,西高島平 方面,目黒 方面,8
都営三田線,#0079C2,25,高島平,35.7891,139.6612,西高島平 方面,目黒 方面,8
都営三田線,#0079C2,26,新高島平,35.7900,139.6542,西高島平 方面,目黒 方面,8
都営三田線,#0079C2,27,西高島平,35.7924,139.6461,西高島平 方面,目黒 方面,8
都営新宿線,#6CBB5A,1,新宿,35.6901,139.7004,本八幡 方面,新宿 方面,10
都営新宿線,#6CBB5A,2,新宿三丁目,35.6909,139.7047,本八幡 方面,新宿 方面,10
都営新宿線,#6CBB5A,3,曙橋,35.6923,139.7222,本八幡 方面,新宿 方面,10
都営新宿線,#6CBB5A,4,市ケ谷,35.6917,139.7358,本八幡 方面,新宿 方面,10
都営新宿線,#6CBB5A,5,九段下,35.6956,139.7519,本八幡 方面,新宿 方面,10
都営新宿線,#6CBB5A,6,神保町,35.6959,139.7577,本八幡 方面,新宿 方面,10
都営新宿線,#6CBB5A,7,小川町,35.6951,139.7668,本八幡 方面,新宿 方面,10
都営新宿線,#6CBB5A,8,岩本町,35.6957,139.7758,本八幡 方面,新宿 方面,10
都営新宿線,#6CBB5A,9,馬喰横山,35.6919,139.7828,本八幡 方面,新宿 方面,10
都営新宿線,#6CBB5A,10,浜町,35.6882,139.7872,本八幡 方面,新宿 方面,10
都営新宿線,#6CBB5A,11,森下,35.6888,139.7981,本八幡 方面,新宿 方面,10
都営新宿線,#6CBB5A,12,菊川,35.6888,139.8075,本八幡 方面,新宿 方面,10
都営新宿線,#6CBB5A,13,住吉,35.6891,139.8162,本八幡 方面,新宿 方面,10
都営新宿線,#6CBB5A,14,西大島,35.6893,139.8272,本八幡 方面,新宿 方面,10
都営新宿線,#6CBB5A,15,大島,35.6904,139.8358,本八幡 方面,新宿 方面,10
都営新宿線,#6CBB5A,16,東大島,35.6909,139.8458,本八幡 方面,新宿 方面,10
都営新宿線,#6CBB5A,17,船堀,35.6839,139.8644,本八幡 方面,新宿 方面,10
都営新宿線,#6CBB5A,18,一之江,35.6858,139.8828,本八幡 方面,新宿 方面,10
都営新宿線,#6CBB5A,19,瑞江,35.6931,139.8972,本八幡 方面,新宿 方面,10
都営新宿線,#6CBB5A,20,篠崎,35.7061,139.9042,本八幡 方面,新宿 方面,10
都営新宿線,#6CBB5A,21,本八幡,35.7208,139.9272,本八幡 方面,新宿 方面,10
都営大江戸線,#B6007A,1,都庁前,35.6897,139.6922,光が丘 方面,都庁前 方面,8
都営大江戸線,#B6007A,2,新宿西口,35.6929,139.6994,光が丘 方面,都庁前 方面,8
都営大江戸線,#B6007A,3,東新宿,35.6976,139.7081,光が丘 方面,都庁前 方面,8
都営大江戸線,#B6007A,4,若松河田,35.6997,139.7175,光が丘 方面,都庁前 方面,8
都営大江戸線,#B6007A,5,牛込柳町,35.6997,139.7262,光が丘 方面,都庁前 方面,8
都営大江戸線,#B6007A,6,牛込神楽坂,35.7005,139.7351,光が丘 方面,都庁前 方面,8
都営大江戸線,#B6007A,7,飯田橋,35.7020,139.7450,光が丘 方面,都庁前 方面,8
都営大江戸線,#B6007A,8,春日,35.7088,139.7523,光が丘 方面,都庁前 方面,8
都営大江戸線,#B6007A,9,本郷三丁目,35.7067,139.7599,光が丘 方面,都庁前 方面,8
都営大江戸線,#B6007A,10,上野御徒町,35.7075,139.7744,光が丘 方面,都庁前 方面,8
都営大江戸線,#B6007A,11,新御徒町,35.7072,139.7828,光が丘 方面,都庁前 方面,8
都営大江戸線,#B6007A,12,蔵前,35.7035,139.7909,光が丘 方面,都庁前 方面,8
都営大江戸線,#B6007A,13,両国,35.6959,139.7963,光が丘 方面,都庁前 方面,8
都営大江戸線,#B6007A,14,森下,35.6888,139.7981,光が丘 方面,都庁前 方面,8
都営大江戸線,#B6007A,15,清澄白河,35.6817,139.7997,光が丘 方面,都庁前 方面,8
都営大江戸線,#B6007A,16,門前仲町,35.6719,139.7963,光が丘 方面,都庁前 方面,8
都営大江戸線,#B6007A,17,月島,35.6634,139.7839,光が丘 方面,都庁前 方面,8
都営大江戸線,#B6007A,18,勝どき,35.6594,139.7773,光が丘 方面,都庁前 方面,8
都営大江戸線,#B6007A,19,築地市場,35.6653,139.7656,光が丘 方面,都庁前 方面,8
都営大江戸線,#B6007A,20,汐留,35.6637,139.7600,光が丘 方面,都庁前 方面,8
都営大江戸線,#B6007A,21,大門,35.6567,139.7547,光が丘 方面,都庁前 方面,8
都営大江戸線,#B6007A,22,赤羽橋,35.6547,139.7431,光が丘 方面,都庁前 方面,8
都営大江戸線,#B6007A,23,麻布十番,35.6547,139.7371,光が丘 方面,都庁前 方面,8
都営大江戸線,#B6007A,24,六本木,35.6628,139.7314,光が丘 方面,都庁前 方面,8
都営大江戸線,#B6007A,25,青山一丁目,35.6729,139.7238,光が丘 方面,都庁前 方面,8
都営大江戸線,#B6007A,26,国立競技場,35.6800,139.7145,光が丘 方面,都庁前 方面,8
都営大江戸線,#B6007A,27,代々木,35.6836,139.7022,光が丘 方面,都庁前 方面,8
都営大江戸線,#B6007A,28,新宿,35.6901,139.7004,光が丘 方面,都庁前 方面,8
都営大江戸線,#B6007A,29,都庁前,35.6897,139.6922,光が丘 方面,都庁前 方面,8
都営大江戸線,#B6007A,30,西新宿五丁目,35.6929,139.6839,光が丘 方面,都庁前 方面,8
都営大江戸線,#B6007A,31,中野坂上,35.6976,139.6828,光が丘 方面,都庁前 方面,8
都営大江戸線,#B6007A,32,東中野,35.7061,139.6839,光が丘 方面,都庁前 方面,8
都営大江戸線,#B6007A,33,中井,35.7142,139.6864,光が丘 方面,都庁前 方面,8
都営大江戸線,#B6007A,34,落合南長崎,35.7234,139.6828,光が丘 方面,都庁前 方面,8
都営大江戸線,#B6007A,35,新江古田,35.7323,139.6722,光が丘 方面,都庁前 方面,8
都営大江戸線,#B6007A,36,練馬,35.7375,139.6542,光が丘 方面,都庁前 方面,8
都営大江戸線,#B6007A,37,豊島園,35.7423,139.6497,光が丘 方面,都庁前 方面,8
都営大江戸線,#B6007A,38,練馬春日町,35.7523,139.6431,光が丘 方面,都庁前 方面,8
都営大江戸線,#B6007A,39,光が丘,35.7589,139.6292,光が丘 方面,都庁前 方面,8
山手線,#80C241,1,大崎,35.6197,139.7282,池袋・上野 方面,品川・東京 方面,11
山手線,#80C241,2,五反田,35.6264,139.7234,池袋・上野 方面,品川・東京 方面,11
山手線,#80C241,3,目黒,35.6339,139.7158,池袋・上野 方面,品川・東京 方面,11
山手線,#80C241,4,恵比寿,35.6467,139.7101,池袋・上野 方面,品川・東京 方面,11
山手線,#80C241,5,渋谷,35.6580,139.7016,池袋・上野 方面,品川・東京 方面,11
山手線,#80C241,6,原宿,35.6702,139.7027,池袋・上野 方面,品川・東京 方面,11
山手線,#80C241,7,代々木,35.6836,139.7022,池袋・上野 方面,品川・東京 方面,11
山手線,#80C241,8,新宿,35.6901,139.7004,池袋・上野 方面,品川・東京 方面,11
山手線,#80C241,9,新大久保,35.7013,139.7000,池袋・上野 方面,品川・東京 方面,11
山手線,#80C241,10,高田馬場,35.7129,139.7038,池袋・上野 方面,品川・東京 方面,11
山手線,#80C241,11,目白,35.7212,139.7066,池袋・上野 方面,品川・東京 方面,11
山手線,#80C241,12,池袋,35.7295,139.7109,池袋・上野 方面,品川・東京 方面,11
山手線,#80C241,13,大塚,35.7314,139.7282,池袋・上野 方面,品川・東京 方面,11
山手線,#80C241,14,巣鴨,35.7334,139.7393,池袋・上野 方面,品川・東京 方面,11
山手線,#80C241,15,駒込,35.7365,139.7469,池袋・上野 方面,品川・東京 方面,11
山手線,#80C241,16,田端,35.7381,139.7608,池袋・上野 方面,品川・東京 方面,11
山手線,#80C241,17,西日暮里,35.7321,139.7668,池袋・上野 方面,品川・東京 方面,11
山手線,#80C241,18,日暮里,35.7281,139.7706,池袋・上野 方面,品川・東京 方面,11
山手線,#80C241,19,鶯谷,35.7215,139.7781,池袋・上野 方面,品川・東京 方面,11
山手線,#80C241,20,上野,35.7137,139.7770,池袋・上野 方面,品川・東京 方面,11
山手線,#80C241,21,御徒町,35.7075,139.7747,池袋・上野 方面,品川・東京 方面,11
山手線,#80C241,22,秋葉原,35.6983,139.7732,池袋・上野 方面,品川・東京 方面,11
山手線,#80C241,23,神田,35.6918,139.7709,池袋・上野 方面,品川・東京 方面,11
山手線,#80C241,24,東京,35.6812,139.7671,池袋・上野 方面,品川・東京 方面,11
山手線,#80C241,25,有楽町,35.6750,139.7633,池袋・上野 方面,品川・東京 方面,11
山手線,#80C241,26,新橋,35.6663,139.7583,池袋・上野 方面,品川・東京 方面,11
山手線,#80C241,27,浜松町,35.6556,139.7571,池袋・上野 方面,品川・東京 方面,11
山手線,#80C241,28,田町,35.6457,139.7476,池袋・上野 方面,品川・東京 方面,11
山手線,#80C241,29,高輪ゲートウェイ,35.6355,139.7407,池袋・上野 方面,品川・東京 方面,11
山手線,#80C241,30,品川,35.6285,139.7388,池袋・上野 方面,品川・東京 方面,11
京浜東北線,#00B2E5,1,大宮,35.9063,139.6240,横浜・大船 方面,大宮 方面,10
京浜東北線,#00B2E5,2,さいたま新都心,35.8939,139.6335,横浜・大船 方面,大宮 方面,10
京浜東北線,#00B2E5,3,与野,35.8834,139.6416,横浜・大船 方面,大宮 方面,10
京浜東北線,#00B2E5,4,北浦和,35.8721,139.6459,横浜・大船 方面,大宮 方面,10
京浜東北線,#00B2E5,5,浦和,35.8585,139.6571,横浜・大船 方面,大宮 方面,10
京浜東北線,#00B2E5,6,南浦和,35.8478,139.6693,横浜・大船 方面,大宮 方面,10
京浜東北線,#00B2E5,7,蕨,35.8282,139.6906,横浜・大船 方面,大宮 方面,10
京浜東北線,#00B2E5,8,西川口,35.8162,139.7042,横浜・大船 方面,大宮 方面,10
京浜東北線,#00B2E5,9,川口,35.8020,139.7176,横浜・大船 方面,大宮 方面,10
京浜東北線,#00B2E5,10,赤羽,35.7776,139.7209,横浜・大船 方面,大宮 方面,10
京浜東北線,#00B2E5,11,東十条,35.7621,139.7268,横浜・大船 方面,大宮 方面,10
京浜東北線,#00B2E5,12,王子,35.7532,139.7369,横浜・大船 方面,大宮 方面,10
京浜東北線,#00B2E5,13,上中里,35.7469,139.7434,横浜・大船 方面,大宮 方面,10
京浜東北線,#00B2E5,14,田端,35.7381,139.7608,横浜・大船 方面,大宮 方面,10
京浜東北線,#00B2E5,15,西日暮里,35.7321,139.7668,横浜・大船 方面,大宮 方面,10
京浜東北線,#00B2E5,16,日暮里,35.7281,139.7706,横浜・大船 方面,大宮 方面,10
京浜東北線,#00B2E5,17,鶯谷,35.7215,139.7781,横浜・大船 方面,大宮 方面,10
京浜東北線,#00B2E5,18,上野,35.7137,139.7770,横浜・大船 方面,大宮 方面,10
京浜東北線,#00B2E5,19,御徒町,35.7075,139.7747,横浜・大船 方面,大宮 方面,10
京浜東北線,#00B2E5,20,秋葉原,35.6983,139.7732,横浜・大船 方面,大宮 方面,10
京浜東北線,#00B2E5,21,神田,35.6918,139.7709,横浜・大船 方面,大宮 方面,10
京浜東北線,#00B2E5,22,東京,35.6812,139.7671,横浜・大船 方面,大宮 方面,10
京浜東北線,#00B2E5,23,有楽町,35.6750,139.7633,横浜・大船 方面,大宮 方面,10
京浜東北線,#00B2E5,24,新橋,35.6663,139.7583,横浜・大船 方面,大宮 方面,10
京浜東北線,#00B2E5,25,浜松町,35.6556,139.7571,横浜・大船 方面,大宮 方面,10
京浜東北線,#00B2E5,26,田町,35.6457,139.7476,横浜・大船 方面,大宮 方面,10
京浜東北線,#00B2E5,27,高輪ゲートウェイ,35.6355,139.7407,横浜・大船 方面,大宮 方面,10
京浜東北線,#00B2E5,28,品川,35.6285,139.7388,横浜・大船 方面,大宮 方面,10
京浜東北線,#00B2E5,29,大井町,35.6074,139.7348,横浜・大船 方面,大宮 方面,10
京浜東北線,#00B2E5,30,大森,35.5886,139.7280,横浜・大船 方面,大宮 方面,10
京浜東北線,#00B2E5,31,蒲田,35.5625,139.7161,横浜・大船 方面,大宮 方面,10
京浜東北線,#00B2E5,32,川崎,35.5313,139.6975,横浜・大船 方面,大宮 方面,10
京浜東北線,#00B2E5,33,鶴見,35.5085,139.6762,横浜・大船 方面,大宮 方面,10
京浜東北線,#00B2E5,34,新子安,35.4877,139.6547,横浜・大船 方面,大宮 方面,10
京浜東北線,#00B2E5,35,東神奈川,35.4780,139.6335,横浜・大船 方面,大宮 方面,10
京浜東北線,#00B2E5,36,横浜,35.4658,139.6223,横浜・大船 方面,大宮 方面,10
中央線,#F15A22,1,東京,35.6812,139.7671,高尾 方面,東京 方面,10
中央線,#F15A22,2,神田,35.6918,139.7709,高尾 方面,東京 方面,10
中央線,#F15A22,3,御茶ノ水,35.7000,139.7638,高尾 方面,東京 方面,10
中央線,#F15A22,4,四ツ谷,35.6861,139.7307,高尾 方面,東京 方面,10
中央線,#F15A22,5,新宿,35.6901,139.7004,高尾 方面,東京 方面,10
中央線,#F15A22,6,中野,35.7057,139.6657,高尾 方面,東京 方面,10
中央線,#F15A22,7,高円寺,35.7053,139.6496,高尾 方面,東京 方面,10
中央線,#F15A22,8,阿佐ケ谷,35.7048,139.6359,高尾 方面,東京 方面,10
中央線,#F15A22,9,荻窪,35.7045,139.6202,高尾 方面,東京 方面,10
中央線,#F15A22,10,西荻窪,35.7038,139.5994,高尾 方面,東京 方面,10
中央線,#F15A22,11,吉祥寺,35.7031,139.5798,高尾 方面,東京 方面,10
中央線,#F15A22,12,三鷹,35.7027,139.5607,高尾 方面,東京 方面,10
中央線,#F15A22,13,武蔵境,35.7021,139.5447,高尾 方面,東京 方面,10
中央線,#F15A22,14,東小金井,35.7015,139.5240,高尾 方面,東京 方面,10
中央線,#F15A22,15,武蔵小金井,35.7012,139.5065,高尾 方面,東京 方面,10
中央線,#F15A22,16,国分寺,35.7001,139.4802,高尾 方面,東京 方面,10
中央線,#F15A22,17,西国分寺,35.6996,139.4660,高尾 方面,東京 方面,10
中央線,#F15A22,18,国立,35.6993,139.4463,高尾 方面,東京 方面,10
中央線,#F15A22,19,立川,35.6983,139.4137,高尾 方面,東京 方面,10
中央線,#F15A22,20,日野,35.6791,139.3938,高尾 方面,東京 方面,10
中央線,#F15A22,21,豊田,35.6593,139.3813,高尾 方面,東京 方面,10
中央線,#F15A22,22,八王子,35.6554,139.3389,高尾 方面,東京 方面,10
中央線,#F15A22,23,西八王子,35.6565,139.3125,高尾 方面,東京 方面,10
中央線,#F15A22,24,高尾,35.6421,139.2822,高尾 方面,東京 方面,10
総武線,#FFD400,1,千葉,35.6133,140.1132,三鷹 方面,千葉 方面,10
総武線,#FFD400,2,西千葉,35.6206,140.1032,三鷹 方面,千葉 方面,10
総武線,#FFD400,3,稲毛,35.6371,140.0925,三鷹 方面,千葉 方面,10
総武線,#FFD400,4,新検見川,35.6517,140.0725,三鷹 方面,千葉 方面,10
総武線,#FFD400,5,幕張,35.6593,140.0578,三鷹 方面,千葉 方面,10
総武線,#FFD400,6,幕張本郷,35.6726,140.0423,三鷹 方面,千葉 方面,10
総武線,#FFD400,7,津田沼,35.6913,140.0204,三鷹 方面,千葉 方面,10
総武線,#FFD400,8,東船橋,35.6997,140.0039,三鷹 方面,千葉 方面,10
総武線,#FFD400,9,船橋,35.7019,139.9850,三鷹 方面,千葉 方面,10
総武線,#FFD400,10,西船橋,35.7075,139.9592,三鷹 方面,千葉 方面,10
総武線,#FFD400,11,下総中山,35.7144,139.9430,三鷹 方面,千葉 方面,10
総武線,#FFD400,12,本八幡,35.7208,139.9272,三鷹 方面,千葉 方面,10
総武線,#FFD400,13,市川,35.7290,139.9082,三鷹 方面,千葉 方面,10
総武線,#FFD400,14,小岩,35.7333,139.8822,三鷹 方面,千葉 方面,10
総武線,#FFD400,15,新小岩,35.7168,139.8577,三鷹 方面,千葉 方面,10
総武線,#FFD400,16,平井,35.7065,139.8423,三鷹 方面,千葉 方面,10
総武線,#FFD400,17,亀戸,35.6973,139.8262,三鷹 方面,千葉 方面,10
総武線,#FFD400,18,錦糸町,35.6967,139.8142,三鷹 方面,千葉 方面,10
総武線,#FFD400,19,両国,35.6959,139.7963,三鷹 方面,千葉 方面,10
総武線,#FFD400,20,浅草橋,35.6974,139.7863,三鷹 方面,千葉 方面,10
総武線,#FFD400,21,秋葉原,35.6983,139.7732,三鷹 方面,千葉 方面,10
総武線,#FFD400,22,御茶ノ水,35.7000,139.7638,三鷹 方面,千葉 方面,10
総武線,#FFD400,23,水道橋,35.7020,139.7533,三鷹 方面,千葉 方面,10
総武線,#FFD400,24,飯田橋,35.7020,139.7450,三鷹 方面,千葉 方面,10
総武線,#FFD400,25,市ケ谷,35.6917,139.7358,三鷹 方面,千葉 方面,10
総武線,#FFD400,26,四ツ谷,35.6861,139.7307,三鷹 方面,千葉 方面,10
総武線,#FFD400,27,信濃町,35.6800,139.7202,三鷹 方面,千葉 方面,10
総武線,#FFD400,28,千駄ケ谷,35.6812,139.7116,三鷹 方面,千葉 方面,10
総武線,#FFD400,29,代々木,35.6836,139.7022,三鷹 方面,千葉 方面,10
総武線,#FFD400,30,新宿,35.6901,139.7004,三鷹 方面,千葉 方面,10
総武線,#FFD400,31,大久保,35.7013,139.6973,三鷹 方面,千葉 方面,10
総武線,#FFD400,32,東中野,35.7061,139.6839,三鷹 方面,千葉 方面,10
総武線,#FFD400,33,中野,35.7057,139.6657,三鷹 方面,千葉 方面,10
総武線,#FFD400,34,高円寺,35.7053,139.6496,三鷹 方面,千葉 方面,10
総武線,#FFD400,35,阿佐ケ谷,35.7048,139.6359,三鷹 方面,千葉 方面,10
総武線,#FFD400,36,荻窪,35.7045,139.6202,三鷹 方面,千葉 方面,10
総武線,#FFD400,37,西荻窪,35.7038,139.5994,三鷹 方面,千葉 方面,10
総武線,#FFD400,38,吉祥寺,35.7031,139.5798,三鷹 方面,千葉 方面,10
総武線,#FFD400,39,三鷹,35.7027,139.5607,三鷹 方面,千葉 方面,10
埼京線,#00AC9B,1,大崎,35.6197,139.7282,大宮 方面,大崎 方面,10
埼京線,#00AC9B,2,恵比寿,35.6467,139.7101,大宮 方面,大崎 方面,10
埼京線,#00AC9B,3,渋谷,35.6580,139.7016,大宮 方面,大崎 方面,10
埼京線,#00AC9B,4,新宿,35.6901,139.7004,大宮 方面,大崎 方面,10
埼京線,#00AC9B,5,池袋,35.7295,139.7109,大宮 方面,大崎 方面,10
埼京線,#00AC9B,6,板橋,35.7456,139.7196,大宮 方面,大崎 方面,10
埼京線,#00AC9B,7,十条,35.7607,139.7218,大宮 方面,大崎 方面,10
埼京線,#00AC9B,8,赤羽,35.7776,139.7209,大宮 方面,大崎 方面,10
埼京線,#00AC9B,9,北赤羽,35.7874,139.7049,大宮 方面,大崎 方面,10
埼京線,#00AC9B,10,浮間舟渡,35.7913,139.6914,大宮 方面,大崎 方面,10
埼京線,#00AC9B,11,戸田公園,35.8078,139.6784,大宮 方面,大崎 方面,10
埼京線,#00AC9B,12,戸田,35.8179,139.6635,大宮 方面,大崎 方面,10
埼京線,#00AC9B,13,北戸田,35.8272,139.6502,大宮 方面,大崎 方面,10
埼京線,#00AC9B,14,武蔵浦和,35.8457,139.6467,大宮 方面,大崎 方面,10
埼京線,#00AC9B,15,中浦和,35.8546,139.6375,大宮 方面,大崎 方面,10
埼京線,#00AC9B,16,南与野,35.8675,139.6308,大宮 方面,大崎 方面,10
埼京線,#00AC9B,17,与野本町,35.8808,139.6262,大宮 方面,大崎 方面,10
埼京線,#00AC9B,18,北与野,35.8907,139.6291,大宮 方面,大崎 方面,10
埼京線,#00AC9B,19,大宮,35.9063,139.6240,大宮 方面,大崎 方面,10
常磐線,#00B261,1,品川,35.6285,139.7388,取手 方面,品川 方面,10
常磐線,#00B261,2,新橋,35.6663,139.7583,取手 方面,品川 方面,10
常磐線,#00B261,3,東京,35.6812,139.7671,取手 方面,品川 方面,10
常磐線,#00B261,4,上野,35.7137,139.7770,取手 方面,品川 方面,10
常磐線,#00B261,5,日暮里,35.7281,139.7706,取手 方面,品川 方面,10
常磐線,#00B261,6,三河島,35.7335,139.7768,取手 方面,品川 方面,10
常磐線,#00B261,7,南千住,35.7337,139.7994,取手 方面,品川 方面,10
常磐線,#00B261,8,北千住,35.7494,139.8051,取手 方面,品川 方面,10
常磐線,#00B261,9,綾瀬,35.7621,139.8242,取手 方面,品川 方面,10
常磐線,#00B261,10,亀有,35.7663,139.8471,取手 方面,品川 方面,10
常磐線,#00B261,11,金町,35.7695,139.8706,取手 方面,品川 方面,10
常磐線,#00B261,12,松戸,35.7845,139.9008,取手 方面,品川 方面,10
常磐線,#00B261,13,北松戸,35.8005,139.9113,取手 方面,品川 方面,10
常磐線,#00B261,14,馬橋,35.8115,139.9184,取手 方面,品川 方面,10
常磐線,#00B261,15,新松戸,35.8252,139.9213,取手 方面,品川 方面,10
常磐線,#00B261,16,北小金,35.8335,139.9317,取手 方面,品川 方面,10
常磐線,#00B261,17,南柏,35.8447,139.9535,取手 方面,品川 方面,10
常磐線,#00B261,18,柏,35.8623,139.9710,取手 方面,品川 方面,10
常磐線,#00B261,19,北柏,35.8755,139.9877,取手 方面,品川 方面,10
常磐線,#00B261,20,我孫子,35.8732,140.0102,取手 方面,品川 方面,10
常磐線,#00B261,21,天王台,35.8735,140.0422,取手 方面,品川 方面,10
常磐線,#00B261,22,取手,35.8953,140.0631,取手 方面,品川 方面,10
京葉線,#C9242F,1,東京,35.6812,139.7671,蘇我 方面,東京 方面,10
京葉線,#C9242F,2,八丁堀,35.6747,139.7773,蘇我 方面,東京 方面,10
京葉線,#C9242F,3,越中島,35.6678,139.7925,蘇我 方面,東京 方面,10
京葉線,#C9242F,4,潮見,35.6586,139.8172,蘇我 方面,東京 方面,10
京葉線,#C9242F,5,新木場,35.6460,139.8262,蘇我 方面,東京 方面,10
京葉線,#C9242F,6,葛西臨海公園,35.6441,139.8617,蘇我 方面,東京 方面,10
京葉線,#C9242F,7,舞浜,35.6362,139.8837,蘇我 方面,東京 方面,10
京葉線,#C9242F,8,新浦安,35.6496,139.9127,蘇我 方面,東京 方面,10
京葉線,#C9242F,9,市川塩浜,35.6663,139.9237,蘇我 方面,東京 方面,10
京葉線,#C9242F,10,二俣新町,35.6913,139.9602,蘇我 方面,東京 方面,10
京葉線,#C9242F,11,南船橋,35.6817,139.9962,蘇我 方面,東京 方面,10
京葉線,#C9242F,12,新習志野,35.6673,140.0128,蘇我 方面,東京 方面,10
京葉線,#C9242F,13,海浜幕張,35.6483,140.0418,蘇我 方面,東京 方面,10
京葉線,#C9242F,14,検見川浜,35.6371,140.0592,蘇我 方面,東京 方面,10
京葉線,#C9242F,15,稲毛海岸,35.6293,140.0738,蘇我 方面,東京 方面,10
京葉線,#C9242F,16,千葉みなと,35.6111,140.1030,蘇我 方面,東京 方面,10
京葉線,#C9242F,17,蘇我,35.5817,140.1308,蘇我 方面,東京 方面,10
武蔵野線,#F15A22,1,府中本町,35.6661,139.4772,西船橋 方面,府中本町 方面,8
武蔵野線,#F15A22,2,北府中,35.6818,139.4717,西船橋 方面,府中本町 方面,8
武蔵野線,#F15A22,3,西国分寺,35.6996,139.4660,西船橋 方面,府中本町 方面,8
武蔵野線,#F15A22,4,新小平,35.7303,139.4705,西船橋 方面,府中本町 方面,8
武蔵野線,#F15A22,5,新秋津,35.7779,139.4933,西船橋 方面,府中本町 方面,8
武蔵野線,#F15A22,6,東所沢,35.7946,139.5142,西船橋 方面,府中本町 方面,8
武蔵野線,#F15A22,7,新座,35.8038,139.5562,西船橋 方面,府中本町 方面,8
武蔵野線,#F15A22,8,北朝霞,35.8152,139.5872,西船橋 方面,府中本町 方面,8
武蔵野線,#F15A22,9,西浦和,35.8443,139.6277,西船橋 方面,府中本町 方面,8
武蔵野線,#F15A22,10,武蔵浦和,35.8457,139.6467,西船橋 方面,府中本町 方面,8
武蔵野線,#F15A22,11,南浦和,35.8478,139.6693,西船橋 方面,府中本町 方面,8
武蔵野線,#F15A22,12,東浦和,35.8643,139.7058,西船橋 方面,府中本町 方面,8
武蔵野線,#F15A22,13,東川口,35.8753,139.7438,西船橋 方面,府中本町 方面,8
武蔵野線,#F15A22,14,南越谷,35.8760,139.7915,西船橋 方面,府中本町 方面,8
武蔵野線,#F15A22,15,越谷レイクタウン,35.8763,139.8222,西船橋 方面,府中本町 方面,8
武蔵野線,#F15A22,16,吉川,35.8765,139.8437,西船橋 方面,府中本町 方面,8
武蔵野線,#F15A22,17,吉川美南,35.8687,139.8580,西船橋 方面,府中本町 方面,8
武蔵野線,#F15A22,18,新三郷,35.8586,139.8693,西船橋 方面,府中本町 方面,8
武蔵野線,#F15A22,19,三郷,35.8442,139.8872,西船橋 方面,府中本町 方面,8
武蔵野線,#F15A22,20,南流山,35.8378,139.9038,西船橋 方面,府中本町 方面,8
武蔵野線,#F15A22,21,新松戸,35.8252,139.9213,西船橋 方面,府中本町 方面,8
武蔵野線,#F15A22,22,新八柱,35.7925,139.9382,西船橋 方面,府中本町 方面,8
武蔵野線,#F15A22,23,東松戸,35.7705,139.9432,西船橋 方面,府中本町 方面,8
武蔵野線,#F15A22,24,市川大野,35.7553,139.9542,西船橋 方面,府中本町 方面,8
武蔵野線,#F15A22,25,船橋法典,35.7303,139.9662,西船橋 方面,府中本町 方面,8
武蔵野線,#F15A22,26,西船橋,35.7075,139.9592,西船橋 方面,府中本町 方面,8
湘南新宿ライン,#E21F26,1,大宮,35.9063,139.6240,逗子・小田原 方面,大宮 方面,15
湘南新宿ライン,#E21F26,2,浦和,35.8585,139.6571,逗子・小田原 方面,大宮 方面,15
湘南新宿ライン,#E21F26,3,赤羽,35.7776,139.7209,逗子・小田原 方面,大宮 方面,15
湘南新宿ライン,#E21F26,4,池袋,35.7295,139.7109,逗子・小田原 方面,大宮 方面,15
湘南新宿ライン,#E21F26,5,新宿,35.6901,139.7004,逗子・小田原 方面,大宮 方面,15
湘南新宿ライン,#E21F26,6,渋谷,35.6580,139.7016,逗子・小田原 方面,大宮 方面,15
湘南新宿ライン,#E21F26,7,恵比寿,35.6467,139.7101,逗子・小田原 方面,大宮 方面,15
湘南新宿ライン,#E21F26,8,大崎,35.6197,139.7282,逗子・小田原 方面,大宮 方面,15
湘南新宿ライン,#E21F26,9,西大井,35.6018,139.7217,逗子・小田原 方面,大宮 方面,15
湘南新宿ライン,#E21F26,10,武蔵小杉,35.5759,139.6597,逗子・小田原 方面,大宮 方面,15
湘南新宿ライン,#E21F26,11,新川崎,35.5514,139.6717,逗子・小田原 方面,大宮 方面,15
湘南新宿ライン,#E21F26,12,横浜,35.4658,139.6223,逗子・小田原 方面,大宮 方面,15
湘南新宿ライン,#E21F26,13,戸塚,35.4009,139.5342,逗子・小田原 方面,大宮 方面,15
湘南新宿ライン,#E21F26,14,大船,35.3541,139.5311,逗子・小田原 方面,大宮 方面,15
小田急小田原線,#009FE8,1,新宿,35.6901,139.7004,小田原 方面,新宿 方面,10
小田急小田原線,#009FE8,2,南新宿,35.6828,139.6983,小田原 方面,新宿 方面,10
小田急小田原線,#009FE8,3,参宮橋,35.6797,139.6937,小田原 方面,新宿 方面,10
小田急小田原線,#009FE8,4,代々木八幡,35.6698,139.6897,小田原 方面,新宿 方面,10
小田急小田原線,#009FE8,5,代々木上原,35.6691,139.6796,小田原 方面,新宿 方面,10
小田急小田原線,#009FE8,6,東北沢,35.6657,139.6728,小田原 方面,新宿 方面,10
小田急小田原線,#009FE8,7,下北沢,35.6619,139.6667,小田原 方面,新宿 方面,10
小田急小田原線,#009FE8,8,世田谷代田,35.6583,139.6617,小田原 方面,新宿 方面,10
小田急小田原線,#009FE8,9,梅ヶ丘,35.6562,139.6533,小田原 方面,新宿 方面,10
小田急小田原線,#009FE8,10,豪徳寺,35.6543,139.6472,小田原 方面,新宿 方面,10
小田急小田原線,#009FE8,11,経堂,35.6517,139.6358,小田原 方面,新宿 方面,10
小田急小田原線,#009FE8,12,千歳船橋,35.6483,139.6247,小田原 方面,新宿 方面,10
小田急小田原線,#009FE8,13,祖師ヶ谷大蔵,35.6441,139.6111,小田原 方面,新宿 方面,10
小田急小田原線,#009FE8,14,成城学園前,35.6408,139.5978,小田原 方面,新宿 方面,10
小田急小田原線,#009FE8,15,喜多見,35.6369,139.5878,小田原 方面,新宿 方面,10
小田急小田原線,#009FE8,16,狛江,35.6331,139.5772,小田原 方面,新宿 方面,10
小田急小田原線,#009FE8,17,和泉多摩川,35.6264,139.5731,小田原 方面,新宿 方面,10
小田急小田原線,#009FE8,18,登戸,35.6206,139.5700,小田原 方面,新宿 方面,10
小田急小田原線,#009FE8,19,向ヶ丘遊園,35.6167,139.5647,小田原 方面,新宿 方面,10
小田急小田原線,#009FE8,20,生田,35.6156,139.5414,小田原 方面,新宿 方面,10
小田急小田原線,#009FE8,21,読売ランド前,35.6144,139.5272,小田原 方面,新宿 方面,10
小田急小田原線,#009FE8,22,百合ヶ丘,35.6083,139.5150,小田原 方面,新宿 方面,10
小田急小田原線,#009FE8,23,新百合ヶ丘,35.6039,139.5075,小田原 方面,新宿 方面,10
小田急小田原線,#009FE8,24,柿生,35.5900,139.4983,小田原 方面,新宿 方面,10
小田急小田原線,#009FE8,25,鶴川,35.5825,139.4828,小田原 方面,新宿 方面,10
小田急小田原線,#009FE8,26,玉川学園前,35.5636,139.4633,小田原 方面,新宿 方面,10
小田急小田原線,#009FE8,27,町田,35.5444,139.4453,小田原 方面,新宿 方面,10
小田急小田原線,#009FE8,28,相模大野,35.5317,139.4378,小田原 方面,新宿 方面,10
東急東横線,#DA0442,1,渋谷,35.6580,139.7016,横浜 方面,渋谷 方面,10
東急東横線,#DA0442,2,代官山,35.6483,139.7033,横浜 方面,渋谷 方面,10
東急東横線,#DA0442,3,中目黒,35.6443,139.6991,横浜 方面,渋谷 方面,10
東急東横線,#DA0442,4,祐天寺,35.6375,139.6908,横浜 方面,渋谷 方面,10
東急東横線,#DA0442,5,学芸大学,35.6289,139.6850,横浜 方面,渋谷 方面,10
東急東横線,#DA0442,6,都立大学,35.6178,139.6764,横浜 方面,渋谷 方面,10
東急東横線,#DA0442,7,自由が丘,35.6074,139.6687,横浜 方面,渋谷 方面,10
東急東横線,#DA0442,8,田園調布,35.5967,139.6672,横浜 方面,渋谷 方面,10
東急東横線,#DA0442,9,多摩川,35.5894,139.6689,横浜 方面,渋谷 方面,10
東急東横線,#DA0442,10,新丸子,35.5806,139.6617,横浜 方面,渋谷 方面,10
東急東横線,#DA0442,11,武蔵小杉,35.5759,139.6597,横浜 方面,渋谷 方面,10
東急東横線,#DA0442,12,元住吉,35.5642,139.6539,横浜 方面,渋谷 方面,10
東急東横線,#DA0442,13,日吉,35.5544,139.6469,横浜 方面,渋谷 方面,10
東急東横線,#DA0442,14,綱島,35.5367,139.6353,横浜 方面,渋谷 方面,10
東急東横線,#DA0442,15,大倉山,35.5217,139.6297,横浜 方面,渋谷 方面,10
東急東横線,#DA0442,16,菊名,35.5097,139.6306,横浜 方面,渋谷 方面,10
東急東横線,#DA0442,17,妙蓮寺,35.4989,139.6339,横浜 方面,渋谷 方面,10
東急東横線,#DA0442,18,白楽,35.4900,139.6278,横浜 方面,渋谷 方面,10
東急東横線,#DA0442,19,東白楽,35.4828,139.6300,横浜 方面,渋谷 方面,10
東急東横線,#DA0442,20,反町,35.4744,139.6256,横浜 方面,渋谷 方面,10
東急東横線,#DA0442,21,横浜,35.4658,139.6223,横浜 方面,渋谷 方面,10
東急田園都市線,#20A288,1,渋谷,35.6580,139.7016,中央林間 方面,渋谷 方面,10
東急田園都市線,#20A288,2,池尻大橋,35.6508,139.6842,中央林間 方面,渋谷 方面,10
東急田園都市線,#20A288,3,三軒茶屋,35.6436,139.6714,中央林間 方面,渋谷 方面,10
東急田園都市線,#20A288,4,駒沢大学,35.6331,139.6608,中央林間 方面,渋谷 方面,10
東急田園都市線,#20A288,5,桜新町,35.6308,139.6450,中央林間 方面,渋谷 方面,10
東急田園都市線,#20A288,6,用賀,35.6264,139.6358,中央林間 方面,渋谷 方面,10
東急田園都市線,#20A288,7,二子玉川,35.6117,139.6267,中央林間 方面,渋谷 方面,10
東急田園都市線,#20A288,8,二子新地,35.6072,139.6225,中央林間 方面,渋谷 方面,10
東急田園都市線,#20A288,9,高津,35.6033,139.6167,中央林間 方面,渋谷 方面,10
東急田園都市線,#20A288,10,溝の口,35.5997,139.6111,中央林間 方面,渋谷 方面,10
東急田園都市線,#20A288,11,梶が谷,35.5936,139.6058,中央林間 方面,渋谷 方面,10
東急田園都市線,#20A288,12,宮崎台,35.5872,139.5933,中央林間 方面,渋谷 方面,10
東急田園都市線,#20A288,13,宮前平,35.5847,139.5819,中央林間 方面,渋谷 方面,10
東急田園都市線,#20A288,14,鷺沼,35.5786,139.5719,中央林間 方面,渋谷 方面,10
東急田園都市線,#20A288,15,たまプラーザ,35.5764,139.5583,中央林間 方面,渋谷 方面,10
東急田園都市線,#20A288,16,あざみ野,35.5683,139.5539,中央林間 方面,渋谷 方面,10
東急田園都市線,#20A288,17,江田,35.5583,139.5519,中央林間 方面,渋谷 方面,10
東急田園都市線,#20A288,18,市が尾,35.5514,139.5414,中央林間 方面,渋谷 方面,10
東急田園都市線,#20A288,19,藤が丘,35.5436,139.5275,中央林間 方面,渋谷 方面,10
東急田園都市線,#20A288,20,青葉台,35.5428,139.5175,中央林間 方面,渋谷 方面,10
東急田園都市線,#20A288,21,田奈,35.5361,139.5036,中央林間 方面,渋谷 方面,10
東急田園都市線,#20A288,22,長津田,35.5317,139.4950,中央林間 方面,渋谷 方面,10
東急田園都市線,#20A288,23,つくし野,35.5261,139.4842,中央林間 方面,渋谷 方面,10
東急田園都市線,#20A288,24,すずかけ台,35.5161,139.4811,中央林間 方面,渋谷 方面,10
東急田園都市線,#20A288,25,南町田グランベリーパーク,35.5111,139.4719,中央林間 方面,渋谷 方面,10
東急田園都市線,#20A288,26,つきみ野,35.5100,139.4589,中央林間 方面,渋谷 方面,10
東急田園都市線,#20A288,27,中央林間,35.5078,139.4442,中央林間 方面,渋谷 方面,10
京王線,#C10077,1,新宿,35.6901,139.7004,京王八王子 方面,新宿 方面,10
京王線,#C10077,2,笹塚,35.6736,139.6672,京王八王子 方面,新宿 方面,10
京王線,#C10077,3,代田橋,35.6714,139.6586,京王八王子 方面,新宿 方面,10
京王線,#C10077,4,明大前,35.6683,139.6503,京王八王子 方面,新宿 方面,10
京王線,#C10077,5,下高井戸,35.6661,139.6425,京王八王子 方面,新宿 方面,10
京王線,#C10077,6,桜上水,35.6661,139.6319,京王八王子 方面,新宿 方面,10
京王線,#C10077,7,上北沢,35.6672,139.6247,京王八王子 方面,新宿 方面,10
京王線,#C10077,8,八幡山,35.6694,139.6156,京王八王子 方面,新宿 方面,10
京王線,#C10077,9,芦花公園,35.6703,139.6083,京王八王子 方面,新宿 方面,10
京王線,#C10077,10,千歳烏山,35.6689,139.6011,京王八王子 方面,新宿 方面,10
京王線,#C10077,11,仙川,35.6622,139.5847,京王八王子 方面,新宿 方面,10
京王線,#C10077,12,つつじヶ丘,35.6581,139.5739,京王八王子 方面,新宿 方面,10
京王線,#C10077,13,柴崎,35.6542,139.5661,京王八王子 方面,新宿 方面,10
京王線,#C10077,14,国領,35.6500,139.5583,京王八王子 方面,新宿 方面,10
京王線,#C10077,15,布田,35.6497,139.5514,京王八王子 方面,新宿 方面,10
京王線,#C10077,16,調布,35.6519,139.5436,京王八王子 方面,新宿 方面,10
京王線,#C10077,17,西調布,35.6569,139.5297,京王八王子 方面,新宿 方面,10
京王線,#C10077,18,飛田給,35.6600,139.5233,京王八王子 方面,新宿 方面,10
京王線,#C10077,19,武蔵野台,35.6644,139.5139,京王八王子 方面,新宿 方面,10
京王線,#C10077,20,多磨霊園,35.6664,139.5033,京王八王子 方面,新宿 方面,10
京王線,#C10077,21,東府中,35.6689,139.4950,京王八王子 方面,新宿 方面,10
京王線,#C10077,22,府中,35.6722,139.4803,京王八王子 方面,新宿 方面,10
京王線,#C10077,23,分倍河原,35.6686,139.4683,京王八王子 方面,新宿 方面,10
京王線,#C10077,24,中河原,35.6600,139.4583,京王八王子 方面,新宿 方面,10
京王線,#C10077,25,聖蹟桜ヶ丘,35.6514,139.4472,京王八王子 方面,新宿 方面,10
京王線,#C10077,26,百草園,35.6575,139.4311,京王八王子 方面,新宿 方面,10
京王線,#C10077,27,高幡不動,35.6622,139.4133,京王八王子 方面,新宿 方面,10
京王線,#C10077,28,南平,35.6550,139.3972,京王八王子 方面,新宿 方面,10
京王線,#C10077,29,平山城址公園,35.6478,139.3872,京王八王子 方面,新宿 方面,10
京王線,#C10077,30,長沼,35.6425,139.3739,京王八王子 方面,新宿 方面,10
京王線,#C10077,31,北野,35.6444,139.3544,京王八王子 方面,新宿 方面,10
京王線,#C10077,32,京王八王子,35.6572,139.3444,京王八王子 方面,新宿 方面,10
京王井の頭線,#C10077,1,渋谷,35.6580,139.7016,吉祥寺 方面,渋谷 方面,5
京王井の頭線,#C10077,2,神泉,35.6558,139.6931,吉祥寺 方面,渋谷 方面,5
京王井の頭線,#C10077,3,駒場東大前,35.6583,139.6828,吉祥寺 方面,渋谷 方面,5
京王井の頭線,#C10077,4,池ノ上,35.6611,139.6739,吉祥寺 方面,渋谷 方面,5
京王井の頭線,#C10077,5,下北沢,35.6619,139.6667,吉祥寺 方面,渋谷 方面,5
京王井の頭線,#C10077,6,新代田,35.6631,139.6603,吉祥寺 方面,渋谷 方面,5
京王井の頭線,#C10077,7,東松原,35.6639,139.6531,吉祥寺 方面,渋谷 方面,5
京王井の頭線,#C10077,8,明大前,35.6683,139.6503,吉祥寺 方面,渋谷 方面,5
京王井の頭線,#C10077,9,永福町,35.6761,139.6428,吉祥寺 方面,渋谷 方面,5
京王井の頭線,#C10077,10,西永福,35.6806,139.6353,吉祥寺 方面,渋谷 方面,5
京王井の頭線,#C10077,11,浜田山,35.6825,139.6272,吉祥寺 方面,渋谷 方面,5
京王井の頭線,#C10077,12,高井戸,35.6833,139.6144,吉祥寺 方面,渋谷 方面,5
京王井の頭線,#C10077,13,富士見ヶ丘,35.6847,139.6050,吉祥寺 方面,渋谷 方面,5
京王井の頭線,#C10077,14,久我山,35.6875,139.5986,吉祥寺 方面,渋谷 方面,5
京王井の頭線,#C10077,15,三鷹台,35.6922,139.5861,吉祥寺 方面,渋谷 方面,5
京王井の頭線,#C10077,16,井の頭公園,35.6983,139.5819,吉祥寺 方面,渋谷 方面,5
京王井の頭線,#C10077,17,吉祥寺,35.7031,139.5798,吉祥寺 方面,渋谷 方面,5
西武池袋線,#00A5BF,1,池袋,35.7295,139.7109,飯能 方面,池袋 方面,10
西武池袋線,#00A5BF,2,椎名町,35.7267,139.6947,飯能 方面,池袋 方面,10
西武池袋線,#00A5BF,3,東長崎,35.7294,139.6836,飯能 方面,池袋 方面,10
西武池袋線,#00A5BF,4,江古田,35.7372,139.6728,飯能 方面,池袋 方面,10
西武池袋線,#00A5BF,5,桜台,35.7389,139.6631,飯能 方面,池袋 方面,10
西武池袋線,#00A5BF,6,練馬,35.7375,139.6542,飯能 方面,池袋 方面,10
西武池袋線,#00A5BF,7,中村橋,35.7364,139.6406,飯能 方面,池袋 方面,10
西武池袋線,#00A5BF,8,富士見台,35.7358,139.6306,飯能 方面,池袋 方面,10
西武池袋線,#00A5BF,9,練馬高野台,35.7406,139.6169,飯能 方面,池袋 方面,10
西武池袋線,#00A5BF,10,石神井公園,35.7436,139.6064,飯能 方面,池袋 方面,10
西武池袋線,#00A5BF,11,大泉学園,35.7494,139.5869,飯能 方面,池袋 方面,10
西武池袋線,#00A5BF,12,保谷,35.7481,139.5667,飯能 方面,池袋 方面,10
西武池袋線,#00A5BF,13,ひばりヶ丘,35.7517,139.5456,飯能 方面,池袋 方面,10
西武池袋線,#00A5BF,14,東久留米,35.7600,139.5339,飯能 方面,池袋 方面,10
西武池袋線,#00A5BF,15,清瀬,35.7725,139.5197,飯能 方面,池袋 方面,10
西武池袋線,#00A5BF,16,秋津,35.7783,139.4994,飯能 方面,池袋 方面,10
西武池袋線,#00A5BF,17,所沢,35.7867,139.4733,飯能 方面,池袋 方面,10
西武新宿線,#00A5BF,1,西武新宿,35.6947,139.7008,本川越 方面,西武新宿 方面,10
西武新宿線,#00A5BF,2,高田馬場,35.7129,139.7038,本川越 方面,西武新宿 方面,10
西武新宿線,#00A5BF,3,下落合,35.7178,139.6931,本川越 方面,西武新宿 方面,10
西武新宿線,#00A5BF,4,中井,35.7142,139.6864,本川越 方面,西武新宿 方面,10
西武新宿線,#00A5BF,5,新井薬師前,35.7139,139.6711,本川越 方面,西武新宿 方面,10
西武新宿線,#00A5BF,6,沼袋,35.7175,139.6631,本川越 方面,西武新宿 方面,10
西武新宿線,#00A5BF,7,野方,35.7194,139.6517,本川越 方面,西武新宿 方面,10
西武新宿線,#00A5BF,8,都立家政,35.7225,139.6433,本川越 方面,西武新宿 方面,10
西武新宿線,#00A5BF,9,鷺ノ宮,35.7228,139.6350,本川越 方面,西武新宿 方面,10
西武新宿線,#00A5BF,10,下井草,35.7236,139.6214,本川越 方面,西武新宿 方面,10
西武新宿線,#00A5BF,11,井荻,35.7244,139.6133,本川越 方面,西武新宿 方面,10
西武新宿線,#00A5BF,12,上井草,35.7253,139.6033,本川越 方面,西武新宿 方面,10
西武新宿線,#00A5BF,13,上石神井,35.7275,139.5911,本川越 方面,西武新宿 方面,10
西武新宿線,#00A5BF,14,武蔵関,35.7281,139.5772,本川越 方面,西武新宿 方面,10
西武新宿線,#00A5BF,15,東伏見,35.7289,139.5647,本川越 方面,西武新宿 方面,10
西武新宿線,#00A5BF,16,西武柳沢,35.7292,139.5539,本川越 方面,西武新宿 方面,10
西武新宿線,#00A5BF,17,田無,35.7278,139.5392,本川越 方面,西武新宿 方面,10
西武新宿線,#00A5BF,18,花小金井,35.7264,139.5136,本川越 方面,西武新宿 方面,10
西武新宿線,#00A5BF,19,小平,35.7369,139.4883,本川越 方面,西武新宿 方面,10
西武新宿線,#00A5BF,20,久米川,35.7483,139.4725,本川越 方面,西武新宿 方面,10
西武新宿線,#00A5BF,21,東村山,35.7611,139.4661,本川越 方面,西武新宿 方面,10
東武東上線,#003399,1,池袋,35.7295,139.7109,小川町 方面,池袋 方面,10
東武東上線,#003399,2,北池袋,35.7408,139.7169,小川町 方面,池袋 方面,10
東武東上線,#003399,3,下板橋,35.7450,139.7153,小川町 方面,池袋 方面,10
東武東上線,#003399,4,大山,35.7483,139.7019,小川町 方面,池袋 方面,10
東武東上線,#003399,5,中板橋,35.7561,139.6947,小川町 方面,池袋 方面,10
東武東上線,#003399,6,ときわ台,35.7583,139.6897,小川町 方面,池袋 方面,10
東武東上線,#003399,7,上板橋,35.7628,139.6792,小川町 方面,池袋 方面,10
東武東上線,#003399,8,東武練馬,35.7683,139.6619,小川町 方面,池袋 方面,10
東武東上線,#003399,9,下赤塚,35.7706,139.6444,小川町 方面,池袋 方面,10
東武東上線,#003399,10,成増,35.7775,139.6331,小川町 方面,池袋 方面,10
東武東上線,#003399,11,和光市,35.7881,139.6123,小川町 方面,池袋 方面,10
東武東上線,#003399,12,朝霞,35.8050,139.6000,小川町 方面,池袋 方面,10
東武東上線,#003399,13,朝霞台,35.8147,139.5864,小川町 方面,池袋 方面,10
東武東上線,#003399,14,志木,35.8222,139.5753,小川町 方面,池袋 方面,10
東武東上線,#003399,15,柳瀬川,35.8289,139.5636,小川町 方面,池袋 方面,10
東武東上線,#003399,16,みずほ台,35.8381,139.5506,小川町 方面,池袋 方面,10
東武東上線,#003399,17,鶴瀬,35.8456,139.5397,小川町 方面,池袋 方面,10
東武東上線,#003399,18,ふじみ野,35.8600,139.5228,小川町 方面,池袋 方面,10
東武東上線,#003399,19,上福岡,35.8731,139.5117,小川町 方面,池袋 方面,10
東武東上線,#003399,20,新河岸,35.8911,139.4975,小川町 方面,池袋 方面,10
東武東上線,#003399,21,川越,35.9064,139.4822,小川町 方面,池袋 方面,10
東武東上線,#003399,22,川越市,35.9142,139.4772,小川町 方面,池袋 方面,10
東武スカイツリーライン,#003399,1,浅草,35.7106,139.7967,東武動物公園 方面,浅草 方面,10
東武スカイツリーライン,#003399,2,とうきょうスカイツリー,35.7106,139.8089,東武動物公園 方面,浅草 方面,10
東武スカイツリーライン,#003399,3,押上,35.7107,139.8128,東武動物公園 方面,浅草 方面,10
東武スカイツリーライン,#003399,4,曳舟,35.7183,139.8169,東武動物公園 方面,浅草 方面,10
東武スカイツリーライン,#003399,5,東向島,35.7247,139.8197,東武動物公園 方面,浅草 方面,10
東武スカイツリーライン,#003399,6,鐘ヶ淵,35.7333,139.8206,東武動物公園 方面,浅草 方面,10
東武スカイツリーライン,#003399,7,堀切,35.7417,139.8183,東武動物公園 方面,浅草 方面,10
東武スカイツリーライン,#003399,8,牛田,35.7444,139.8117,東武動物公園 方面,浅草 方面,10
東武スカイツリーライン,#003399,9,北千住,35.7494,139.8051,東武動物公園 方面,浅草 方面,10
東武スカイツリーライン,#003399,10,小菅,35.7578,139.8131,東武動物公園 方面,浅草 方面,10
東武スカイツリーライン,#003399,11,五反野,35.7656,139.8106,東武動物公園 方面,浅草 方面,10
東武スカイツリーライン,#003399,12,梅島,35.7728,139.7969,東武動物公園 方面,浅草 方面,10
東武スカイツリーライン,#003399,13,西新井,35.7775,139.7900,東武動物公園 方面,浅草 方面,10
東武スカイツリーライン,#003399,14,竹ノ塚,35.7944,139.7903,東武動物公園 方面,浅草 方面,10
東武スカイツリーライン,#003399,15,谷塚,35.8133,139.8017,東武動物公園 方面,浅草 方面,10
東武スカイツリーライン,#003399,16,草加,35.8286,139.8042,東武動物公園 方面,浅草 方面,10
東武スカイツリーライン,#003399,17,松原団地,35.8425,139.7981,東武動物公園 方面,浅草 方面,10
東武スカイツリーライン,#003399,18,新田,35.8542,139.7933,東武動物公園 方面,浅草 方面,10
東武スカイツリーライン,#003399,19,蒲生,35.8678,139.7911,東武動物公園 方面,浅草 方面,10
東武スカイツリーライン,#003399,20,新越谷,35.8753,139.7900,東武動物公園 方面,浅草 方面,10
東武スカイツリーライン,#003399,21,越谷,35.8886,139.7892,東武動物公園 方面,浅草 方面,10
東武スカイツリーライン,#003399,22,北越谷,35.9031,139.7831,東武動物公園 方面,浅草 方面,10
東武スカイツリーライン,#003399,23,大袋,35.9239,139.7781,東武動物公園 方面,浅草 方面,10
東武スカイツリーライン,#003399,24,せんげん台,35.9372,139.7744,東武動物公園 方面,浅草 方面,10
東武スカイツリーライン,#003399,25,武里,35.9506,139.7719,東武動物公園 方面,浅草 方面,10
東武スカイツリーライン,#003399,26,一ノ割,35.9644,139.7694,東武動物公園 方面,浅草 方面,10
東武スカイツリーライン,#003399,27,春日部,35.9794,139.7522,東武動物公園 方面,浅草 方面,10
京成本線,#003399,1,京成上野,35.7114,139.7733,成田空港 方面,京成上野 方面,8
京成本線,#003399,2,日暮里,35.7281,139.7706,成田空港 方面,京成上野 方面,8
京成本線,#003399,3,新三河島,35.7361,139.7803,成田空港 方面,京成上野 方面,8
京成本線,#003399,4,町屋,35.7423,139.7809,成田空港 方面,京成上野 方面,8
京成本線,#003399,5,千住大橋,35.7422,139.7972,成田空港 方面,京成上野 方面,8
京成本線,#003399,6,京成関屋,35.7439,139.8131,成田空港 方面,京成上野 方面,8
京成本線,#003399,7,堀切菖蒲園,35.7475,139.8286,成田空港 方面,京成上野 方面,8
京成本線,#003399,8,お花茶屋,35.7483,139.8392,成田空港 方面,京成上野 方面,8
京成本線,#003399,9,青砥,35.7458,139.8561,成田空港 方面,京成上野 方面,8
京成本線,#003399,10,京成高砂,35.7508,139.8669,成田空港 方面,京成上野 方面,8
京成本線,#003399,11,京成小岩,35.7417,139.8828,成田空港 方面,京成上野 方面,8
京成本線,#003399,12,江戸川,35.7381,139.8978,成田空港 方面,京成上野 方面,8
京成本線,#003399,13,国府台,35.7383,139.9056,成田空港 方面,京成上野 方面,8
京成本線,#003399,14,市川真間,35.7317,139.9117,成田空港 方面,京成上野 方面,8
京成本線,#003399,15,菅野,35.7275,139.9214,成田空港 方面,京成上野 方面,8
京成本線,#003399,16,京成八幡,35.7214,139.9272,成田空港 方面,京成上野 方面,8
京成本線,#003399,17,鬼越,35.7172,139.9364,成田空港 方面,京成上野 方面,8
京成本線,#003399,18,京成中山,35.7144,139.9453,成田空港 方面,京成上野 方面,8
京成本線,#003399,19,東中山,35.7117,139.9542,成田空港 方面,京成上野 方面,8
京成本線,#003399,20,京成西船,35.7083,139.9611,成田空港 方面,京成上野 方面,8
京成本線,#003399,21,海神,35.7078,139.9725,成田空港 方面,京成上野 方面,8
京成本線,#003399,22,京成船橋,35.7018,139.9855,成田空港 方面,京成上野 方面,8
京成本線,#003399,23,大神宮下,35.6961,139.9922,成田空港 方面,京成上野 方面,8
京成本線,#003399,24,船橋競馬場,35.6914,139.9983,成田空港 方面,京成上野 方面,8
京成本線,#003399,25,谷津,35.6853,140.0072,成田空港 方面,京成上野 方面,8
京成本線,#003399,26,京成津田沼,35.6836,140.0247,成田空港 方面,京成上野 方面,8
京急本線,#003399,1,泉岳寺,35.6378,139.7397,浦賀 方面,泉岳寺 方面,8
京急本線,#003399,2,品川,35.6285,139.7388,浦賀 方面,泉岳寺 方面,8
京急本線,#003399,3,北品川,35.6222,139.7389,浦賀 方面,泉岳寺 方面,8
京急本線,#003399,4,新馬場,35.6175,139.7425,浦賀 方面,泉岳寺 方面,8
京急本線,#003399,5,青物横丁,35.6100,139.7439,浦賀 方面,泉岳寺 方面,8
京急本線,#003399,6,鮫洲,35.6067,139.7428,浦賀 方面,泉岳寺 方面,8
京急本線,#003399,7,立会川,35.5997,139.7394,浦賀 方面,泉岳寺 方面,8
京急本線,#003399,8,大森海岸,35.5886,139.7364,浦賀 方面,泉岳寺 方面,8
京急本線,#003399,9,平和島,35.5783,139.7336,浦賀 方面,泉岳寺 方面,8
京急本線,#003399,10,大森町,35.5722,139.7317,浦賀 方面,泉岳寺 方面,8
京急本線,#003399,11,梅屋敷,35.5656,139.7289,浦賀 方面,泉岳寺 方面,8
京急本線,#003399,12,京急蒲田,35.5608,139.7242,浦賀 方面,泉岳寺 方面,8
京急本線,#003399,13,雑色,35.5517,139.7192,浦賀 方面,泉岳寺 方面,8
京急本線,#003399,14,六郷土手,35.5411,139.7119,浦賀 方面,泉岳寺 方面,8
京急本線,#003399,15,京急川崎,35.5331,139.7028,浦賀 方面,泉岳寺 方面,8
京急本線,#003399,16,八丁畷,35.5256,139.6931,浦賀 方面,泉岳寺 方面,8
京急本線,#003399,17,鶴見市場,35.5203,139.6869,浦賀 方面,泉岳寺 方面,8
京急本線,#003399,18,京急鶴見,35.5089,139.6769,浦賀 方面,泉岳寺 方面,8
京急本線,#003399,19,花月総持寺,35.5022,139.6711,浦賀 方面,泉岳寺 方面,8
京急本線,#003399,20,生麦,35.4958,139.6675,浦賀 方面,泉岳寺 方面,8
京急本線,#003399,21,京急新子安,35.4878,139.6556,浦賀 方面,泉岳寺 方面,8
京急本線,#003399,22,子安,35.4839,139.6481,浦賀 方面,泉岳寺 方面,8
京急本線,#003399,23,神奈川新町,35.4800,139.6419,浦賀 方面,泉岳寺 方面,8
京急本線,#003399,24,京急東神奈川,35.4764,139.6339,浦賀 方面,泉岳寺 方面,8
京急本線,#003399,25,神奈川,35.4722,139.6294,浦賀 方面,泉岳寺 方面,8
京急本線,#003399,26,横浜,35.4658,139.6223,浦賀 方面,泉岳寺 方面,8
つくばエクスプレス,#003399,1,秋葉原,35.6983,139.7732,つくば 方面,秋葉原 方面,6
つくばエクスプレス,#003399,2,新御徒町,35.7072,139.7828,つくば 方面,秋葉原 方面,6
つくばエクスプレス,#003399,3,浅草,35.7153,139.7925,つくば 方面,秋葉原 方面,6
つくばエクスプレス,#003399,4,南千住,35.7337,139.7994,つくば 方面,秋葉原 方面,6
つくばエクスプレス,#003399,5,北千住,35.7494,139.8051,つくば 方面,秋葉原 方面,6
つくばエクスプレス,#003399,6,青井,35.7725,139.8219,つくば 方面,秋葉原 方面,6
つくばエクスプレス,#003399,7,六町,35.7836,139.8267,つくば 方面,秋葉原 方面,6
つくばエクスプレス,#003399,8,八潮,35.8081,139.8436,つくば 方面,秋葉原 方面,6
つくばエクスプレス,#003399,9,三郷中央,35.8425,139.8731,つくば 方面,秋葉原 方面,6
つくばエクスプレス,#003399,10,南流山,35.8378,139.9038,つくば 方面,秋葉原 方面,6
つくばエクスプレス,#003399,11,流山セントラルパーク,35.8569,139.9169,つくば 方面,秋葉原 方面,6
つくばエクスプレス,#003399,12,流山おおたかの森,35.8722,139.9258,つくば 方面,秋葉原 方面,6
つくばエクスプレス,#003399,13,柏の葉キャンパス,35.8936,139.9519,つくば 方面,秋葉原 方面,6
つくばエクスプレス,#003399,14,柏たなか,35.9125,139.9575,つくば 方面,秋葉原 方面,6
つくばエクスプレス,#003399,15,守谷,35.9508,139.9925,つくば 方面,秋葉原 方面,6
ゆりかもめ,#003399,1,新橋,35.6663,139.7583,豊洲 方面,新橋 方面,6
ゆりかもめ,#003399,2,汐留,35.6637,139.7600,豊洲 方面,新橋 方面,6
ゆりかもめ,#003399,3,竹芝,35.6564,139.7628,豊洲 方面,新橋 方面,6
ゆりかもめ,#003399,4,日の出,35.6517,139.7606,豊洲 方面,新橋 方面,6
ゆりかもめ,#003399,5,芝浦ふ頭,35.6425,139.7575,豊洲 方面,新橋 方面,6
ゆりかもめ,#003399,6,お台場海浜公園,35.6297,139.7758,豊洲 方面,新橋 方面,6
ゆりかもめ,#003399,7,台場,35.6281,139.7719,豊洲 方面,新橋 方面,6
ゆりかもめ,#003399,8,東京国際クルーズターミナル,35.6214,139.7733,豊洲 方面,新橋 方面,6
ゆりかもめ,#003399,9,テレコムセンター,35.6175,139.7797,豊洲 方面,新橋 方面,6
ゆりかもめ,#003399,10,青海,35.6247,139.7825,豊洲 方面,新橋 方面,6
ゆりかもめ,#003399,11,東京ビックサイト,35.6300,139.7892,豊洲 方面,新橋 方面,6
ゆりかもめ,#003399,12,有明,35.6344,139.7925,豊洲 方面,新橋 方面,6
ゆりかもめ,#003399,13,有明テニスの森,35.6378,139.7892,豊洲 方面,新橋 方面,6
ゆりかもめ,#003399,14,市場前,35.6456,139.7867,豊洲 方面,新橋 方面,6
ゆりかもめ,#003399,15,新豊洲,35.6492,139.7900,豊洲 方面,新橋 方面,6
ゆりかもめ,#003399,16,豊洲,35.6551,139.7960,豊洲 方面,新橋 方面,6
りんかい線,#003399,1,新木場,35.6460,139.8262,大崎 方面,新木場 方面,10
りんかい線,#003399,2,東雲,35.6419,139.8058,大崎 方面,新木場 方面,10
りんかい線,#003399,3,国際展示場,35.6339,139.7928,大崎 方面,新木場 方面,10
りんかい線,#003399,4,東京テレポート,35.6264,139.7806,大崎 方面,新木場 方面,10
りんかい線,#003399,5,天王洲アイル,35.6214,139.7508,大崎 方面,新木場 方面,10
りんかい線,#003399,6,品川シーサイド,35.6106,139.7456,大崎 方面,新木場 方面,10
りんかい線,#003399,7,大井町,35.6074,139.7348,大崎 方面,新木場 方面,10
りんかい線,#003399,8,大崎,35.6197,139.7282,大崎 方面,新木場 方面,10